[
  {
    "stadium_id": "state-farm-stadium",
    "stadium_name": "State Farm Stadium",
    "city": "Glendale",
    "state": "AZ",
    "country": "USA",
    "capacity": 63400,
    "surface_type": "Grass",
    "roof_type": "Retractable",
    "opened_year": 2006,
    "latitude": 33.5276,
    "longitude": -112.2626
  },
  {
    "stadium_id": "mercedes-benz-stadium",
    "stadium_name": "Mercedes-Benz Stadium",
    "city": "Atlanta",
    "state": "GA",
    "country": "USA",
    "capacity": 71000,
    "surface_type": "FieldTurf",
    "roof_type": "Retractable",
    "opened_year": 2017,
    "latitude": 33.7553,
    "longitude": -84.4006
  },
  {
    "stadium_id": "mt-bank-stadium",
    "stadium_name": "M&T Bank Stadium",
    "city": "Baltimore",
    "state": "MD",
    "country": "USA",
    "capacity": 70745,
    "surface_type": "Grass",
    "roof_type": "Open",
    "opened_year": 1998,
    "latitude": 39.2780,
    "longitude": -76.6227
  },
  {
    "stadium_id": "highmark-stadium",
    "stadium_name": "Highmark Stadium",
    "city": "Orchard Park",
    "state": "NY",
    "country": "USA",
    "capacity": 71608,
    "surface_type": "FieldTurf",
    "roof_type": "Open",
    "opened_year": 1973,
    "latitude": 42.7738,
    "longitude": -78.7870
  },
  {
    "stadium_id": "bank-of-america-stadium",
    "stadium_name": "Bank of America Stadium",
    "city": "Charlotte",
    "state": "NC",
    "country": "USA",
    "capacity": 75523,
    "surface_type": "Grass",
    "roof_type": "Open",
    "opened_year": 1996,
    "latitude": 35.2258,
    "longitude": -80.8528
  },
  {
    "stadium_id": "soldier-field",
    "stadium_name": "Soldier Field",
    "city": "Chicago",
    "state": "IL",
    "country": "USA",
    "capacity": 61500,
    "surface_type": "Grass",
    "roof_type": "Open",
    "opened_year": 1924,
    "latitude": 41.8623,
    "longitude": -87.6167
  },
  {
    "stadium_id": "paycor-stadium",
    "stadium_name": "Paycor Stadium",
    "city": "Cincinnati",
    "state": "OH",
    "country": "USA",
    "capacity": 65515,
    "surface_type": "FieldTurf",
    "roof_type": "Open",
    "opened_year": 2000,
    "latitude": 39.0954,
    "longitude": -84.5160
  },
  {
    "stadium_id": "cleveland-browns-stadium",
    "stadium_name": "Cleveland Browns Stadium",
    "city": "Cleveland",
    "state": "OH",
    "country": "USA",
    "capacity": 67895,
    "surface_type": "Grass",
    "roof_type": "Open",
    "opened_year": 1999,
    "latitude": 41.5061,
    "longitude": -81.6995
  },
  {
    "stadium_id": "att-stadium",
    "stadium_name": "AT&T Stadium",
    "city": "Arlington",
    "state": "TX",
    "country": "USA",
    "capacity": 80000,
    "surface_type": "FieldTurf",
    "roof_type": "Retractable",
    "opened_year": 2009,
    "latitude": 32.7473,
    "longitude": -97.0945
  },
  {
    "stadium_id": "empower-field",
    "stadium_name": "Empower Field at Mile High",
    "city": "Denver",
    "state": "CO",
    "country": "USA",
    "capacity": 76125,
    "surface_type": "Grass",
    "roof_type": "Open",
    "opened_year": 2001,
    "latitude": 39.7439,
    "longitude": -105.0201,
    "elevation_feet": 5280
  },
  {
    "stadium_id": "ford-field",
    "stadium_name": "Ford Field",
    "city": "Detroit",
    "state": "MI",
    "country": "USA",
    "capacity": 65000,
    "surface_type": "FieldTurf",
    "roof_type": "Dome",
    "opened_year": 2002,
    "latitude": 42.3400,
    "longitude": -83.0456
  },
  {
    "stadium_id": "lambeau-field",
    "stadium_name": "Lambeau Field",
    "city": "Green Bay",
    "state": "WI",
    "country": "USA",
    "capacity": 81441,
    "surface_type": "Grass",
    "roof_type": "Open",
    "opened_year": 1957,
    "latitude": 44.5013,
    "longitude": -88.0622
  },
  {
    "stadium_id": "nrg-stadium",
    "stadium_name": "NRG Stadium",
    "city": "Houston",
    "state": "TX",
    "country": "USA",
    "capacity": 72220,
    "surface_type": "Grass",
    "roof_type": "Retractable",
    "opened_year": 2002,
    "latitude": 29.6847,
    "longitude": -95.4107
  },
  {
    "stadium_id": "lucas-oil-stadium",
    "stadium_name": "Lucas Oil Stadium",
    "city": "Indianapolis",
    "state": "IN",
    "country": "USA",
    "capacity": 67000,
    "surface_type": "FieldTurf",
    "roof_type": "Retractable",
    "opened_year": 2008,
    "latitude": 39.7601,
    "longitude": -86.1639
  },
  {
    "stadium_id": "everbank-stadium",
    "stadium_name": "EverBank Stadium",
    "city": "Jacksonville",
    "state": "FL",
    "country": "USA",
    "capacity": 67814,
    "surface_type": "Grass",
    "roof_type": "Open",
    "opened_year": 1995,
    "latitude": 30.3239,
    "longitude": -81.6373
  },
  {
    "stadium_id": "arrowhead-stadium",
    "stadium_name": "GEHA Field at Arrowhead Stadium",
    "city": "Kansas City",
    "state": "MO",
    "country": "USA",
    "capacity": 76416,
    "surface_type": "Grass",
    "roof_type": "Open",
    "opened_year": 1972,
    "latitude": 39.0489,
    "longitude": -94.4839
  },
  {
    "stadium_id": "allegiant-stadium",
    "stadium_name": "Allegiant Stadium",
    "city": "Las Vegas",
    "state": "NV",
    "country": "USA",
    "capacity": 65000,
    "surface_type": "Grass",
    "roof_type": "Dome",
    "opened_year": 2020,
    "latitude": 36.0909,
    "longitude": -115.1833
  },
  {
    "stadium_id": "sofi-stadium",
    "stadium_name": "SoFi Stadium",
    "city": "Inglewood",
    "state": "CA",
    "country": "USA",
    "capacity": 70240,
    "surface_type": "FieldTurf",
    "roof_type": "Dome",
    "opened_year": 2020,
    "latitude": 33.9535,
    "longitude": -118.3392
  },
  {
    "stadium_id": "hard-rock-stadium",
    "stadium_name": "Hard Rock Stadium",
    "city": "Miami Gardens",
    "state": "FL",
    "country": "USA",
    "capacity": 64767,
    "surface_type": "Grass",
    "roof_type": "Open",
    "opened_year": 1987,
    "latitude": 25.9580,
    "longitude": -80.2389
  },
  {
    "stadium_id": "us-bank-stadium",
    "stadium_name": "U.S. Bank Stadium",
    "city": "Minneapolis",
    "state": "MN",
    "country": "USA",
    "capacity": 66860,
    "surface_type": "FieldTurf",
    "roof_type": "Dome",
    "opened_year": 2016,
    "latitude": 44.9738,
    "longitude": -93.2575
  },
  {
    "stadium_id": "gillette-stadium",
    "stadium_name": "Gillette Stadium",
    "city": "Foxborough",
    "state": "MA",
    "country": "USA",
    "capacity": 65878,
    "surface_type": "FieldTurf",
    "roof_type": "Open",
    "opened_year": 2002,
    "latitude": 42.0909,
    "longitude": -71.2643
  },
  {
    "stadium_id": "caesars-superdome",
    "stadium_name": "Caesars Superdome",
    "city": "New Orleans",
    "state": "LA",
    "country": "USA",
    "capacity": 73208,
    "surface_type": "FieldTurf",
    "roof_type": "Dome",
    "opened_year": 1975,
    "latitude": 29.9511,
    "longitude": -90.0812
  },
  {
    "stadium_id": "metlife-stadium",
    "stadium_name": "MetLife Stadium",
    "city": "East Rutherford",
    "state": "NJ",
    "country": "USA",
    "capacity": 82500,
    "surface_type": "FieldTurf",
    "roof_type": "Open",
    "opened_year": 2010,
    "latitude": 40.8128,
    "longitude": -74.0742
  },
  {
    "stadium_id": "lincoln-financial-field",
    "stadium_name": "Lincoln Financial Field",
    "city": "Philadelphia",
    "state": "PA",
    "country": "USA",
    "capacity": 69796,
    "surface_type": "Grass",
    "roof_type": "Open",
    "opened_year": 2003,
    "latitude": 39.9008,
    "longitude": -75.1675
  },
  {
    "stadium_id": "acrisure-stadium",
    "stadium_name": "Acrisure Stadium",
    "city": "Pittsburgh",
    "state": "PA",
    "country": "USA",
    "capacity": 68400,
    "surface_type": "Grass",
    "roof_type": "Open",
    "opened_year": 2001,
    "latitude": 40.4468,
    "longitude": -80.0158
  },
  {
    "stadium_id": "levis-stadium",
    "stadium_name": "Levi's Stadium",
    "city": "Santa Clara",
    "state": "CA",
    "country": "USA",
    "capacity": 68500,
    "surface_type": "Grass",
    "roof_type": "Open",
    "opened_year": 2014,
    "latitude": 37.4030,
    "longitude": -121.9698
  },
  {
    "stadium_id": "lumen-field",
    "stadium_name": "Lumen Field",
    "city": "Seattle",
    "state": "WA",
    "country": "USA",
    "capacity": 68740,
    "surface_type": "FieldTurf",
    "roof_type": "Open",
    "opened_year": 2002,
    "latitude": 47.5952,
    "longitude": -122.3316
  },
  {
    "stadium_id": "raymond-james-stadium",
    "stadium_name": "Raymond James Stadium",
    "city": "Tampa",
    "state": "FL",
    "country": "USA",
    "capacity": 65890,
    "surface_type": "Grass",
    "roof_type": "Open",
    "opened_year": 1998,
    "latitude": 27.9759,
    "longitude": -82.5033
  },
  {
    "stadium_id": "nissan-stadium",
    "stadium_name": "Nissan Stadium",
    "city": "Nashville",
    "state": "TN",
    "country": "USA",
    "capacity": 69143,
    "surface_type": "Grass",
    "roof_type": "Open",
    "opened_year": 1999,
    "latitude": 36.1665,
    "longitude": -86.7713
  },
  {
    "stadium_id": "northwest-stadium",
    "stadium_name": "Northwest Stadium",
    "city": "Landover",
    "state": "MD",
    "country": "USA",
    "capacity": 62000,
    "surface_type": "Grass",
    "roof_type": "Open",
    "opened_year": 1997,
    "latitude": 38.9076,
    "longitude": -76.8645
  }
]
